{"type":"FeatureCollection","features":[{"type":"Feature","properties":{"NAME":"VA MEDICAL CENTER -- LEESTOWN DIVISION","ADDRESS":"2250 LEESTOWN RD","ATLEX":10,"Page":30,"Grid":"L-18"},"geometry":{"type":"Point","coordinates":[-84.53948713134263,38.07291667995418]}},{"type":"Feature","properties":{"NAME":"ST JOSEPH EAST","ADDRESS":"150 N EAGLE CREEK DR","ATLEX":5,"Page":61,"Grid":"V-27"},"geometry":{"type":"Point","coordinates":[-84.4404348777345,37.99875757383359]}},{"type":"Feature","properties":{"NAME":"CENTRAL BAPTIST HOSPITAL","ADDRESS":"1740 NICHOLASVILLE RD","ATLEX":2,"Page":59,"Grid":"O-25"},"geometry":{"type":"Point","coordinates":[-84.5122832722571,38.0189183155312]}},{"type":"Feature","properties":{"NAME":"VA MEDICAL CENTER -- COOPER DR DIVISION","ADDRESS":"1101 VETERANS DR","ATLEX":9,"Page":59,"Grid":"P-24"},"geometry":{"type":"Point","coordinates":[-84.5064832002418,38.02972031075516]}},{"type":"Feature","properties":{"NAME":"SHRINERS HOSPITAL FOR CHILDREN","ADDRESS":"1900 RICHMOND RD","ATLEX":4,"Page":60,"Grid":"S-24"},"geometry":{"type":"Point","coordinates":[-84.47294165131412,38.022564423634016]}},{"type":"Feature","properties":{"NAME":"EASTERN STATE HOSPITAL","ADDRESS":"627 W FOURTH ST","ATLEX":3,"Page":45,"Grid":"P-20"},"geometry":{"type":"Point","coordinates":[-84.4988161885299,38.06079137268558]}},{"type":"Feature","properties":{"NAME":"CARDINAL HILL REHABILITATION HOSPITAL","ADDRESS":"2050 VERSAILLES RD","ATLEX":1,"Page":44,"Grid":"L-21"},"geometry":{"type":"Point","coordinates":[-84.5421203978623,38.04656817974654]}},{"type":"Feature","properties":{"NAME":"ST JOSEPH HOSPITAL","ADDRESS":"1 ST JOSEPH DR","ATLEX":6,"Page":44,"Grid":"N-23"},"geometry":{"type":"Point","coordinates":[-84.52363681191808,38.03247589313223]}},{"type":"Feature","properties":{"NAME":"UK HEALTHCARE GOOD SAMARITAN HOSPITAL","ADDRESS":"310 S LIMESTONE","ATLEX":7,"Page":45,"Grid":"P-22"},"geometry":{"type":"Point","coordinates":[-84.50122209847031,38.04212322992069]}},{"type":"Feature","properties":{"NAME":"UK MEDICAL CENTER","ADDRESS":"800 ROSE ST","ATLEX":8,"Page":45,"Grid":"P-23"},"geometry":{"type":"Point","coordinates":[-84.50820554262819,38.03125496325]}}]}