{"type":"FeatureCollection","features":[{"type":"Feature","properties":{"NAME":"LEXINGTON (MAIN)","ADDRESS":"1088 NANDINO DR","ATLEX":6,"Page":31,"Grid":"P-18"},"geometry":{"type":"Point","coordinates":[-84.50439340223397,38.07699303974021]}},{"type":"Feature","properties":{"NAME":"BLUEGRASS STATION","ADDRESS":"3525 LANSDOWNE DR","ATLEX":2,"Page":70,"Grid":"O-29"},"geometry":{"type":"Point","coordinates":[-84.51649178411792,37.9878727178179]}},{"type":"Feature","properties":{"NAME":"GARDENSIDE STATION","ADDRESS":"1729 ALEXANDRIA DR","ATLEX":4,"Page":43,"Grid":"K-22"},"geometry":{"type":"Point","coordinates":[-84.55316948051029,38.03956331594082]}},{"type":"Feature","properties":{"NAME":"POST RIDER STATION","ADDRESS":"210 E HIGH ST","ATLEX":8,"Page":45,"Grid":"Q-22"},"geometry":{"type":"Point","coordinates":[-84.49670258928427,38.04279949686484]}},{"type":"Feature","properties":{"NAME":"BRENTWOOD STATION","ADDRESS":"1045 BRENTWOOD CT","ATLEX":3,"Page":31,"Grid":"P-18"},"geometry":{"type":"Point","coordinates":[-84.49885423020515,38.078259249177684]}},{"type":"Feature","properties":{"NAME":"LIBERTY ROAD STATION","ADDRESS":"2041 CREATIVE DR","ATLEX":7,"Page":61,"Grid":"U-24"},"geometry":{"type":"Point","coordinates":[-84.4549449218727,38.02891304998677]}},{"type":"Feature","properties":{"NAME":"BEAUMONT CENTRE","ADDRESS":"1025 MAJESTIC DR","ATLEX":1,"Page":57,"Grid":"K-24"},"geometry":{"type":"Point","coordinates":[-84.55594487611158,38.022332841395354]}},{"type":"Feature","properties":{"NAME":"HENRY CLAY STATION","ADDRESS":"365 DUKE RD","ATLEX":5,"Page":59,"Grid":"Q-25"},"geometry":{"type":"Point","coordinates":[-84.48772408600624,38.01934412986491]}}]}